{
  "network": {
    "company": [
      "ClearChannel"
    ],
    "href": "/v2/networks/velo-antwerpen",
    "id": "velo-antwerpen",
    "location": {
      "city": "Antwerpen",
      "country": "BE",
      "latitude": 51.216667,
      "longitude": 4.4
    },
    "name": "Velo Antwerpen",
    "stations": [
      {
        "empty_slots": 15,
        "extra": {
          "address": "Koningin Astridplein",
          "status": "OPN",
          "uid": 1
        },
        "free_bikes": 16,
        "id": "670e2836abf87ddc702ad790abaf8f10",
        "latitude": 51.21782,
        "longitude": 4.42065,
        "name": "001- Centraal Station - Astrid",
        "timestamp": "2024-08-04T18:54:26.251000Z"
      },
      {
        "empty_slots": 14,
        "extra": {
          "address": "Groenkerkhofstraat/Nationalestraat",
          "status": "OPN",
          "uid": 20
        },
        "free_bikes": 12,
        "id": "ebdaa116e2ddfb4a3010a2847e69f60f",
        "latitude": 51.2188,
        "longitude": 4.401,
        "name": "020- Groenplaats 2",
        "timestamp": "2024-08-04T18:54:26.472000Z"
      },
      {
        "empty_slots": 18,
        "extra": {
          "address": "sint vincentius",
          "status": "OPN",
          "uid": 93
        },
        "free_bikes": 12,
        "id": "7cc97751ec977d34fc265b65aa88732c",
        "latitude": 51.20541,
        "longitude": 4.41356,
        "name": "093- Sint Vincentius",
        "timestamp": "2024-08-04T18:54:27.085000Z"
      },
      {
        "empty_slots": 6,
        "extra": {
          "address": "Paleisstraat ",
          "status": "OPN",
          "uid": 94
        },
        "free_bikes": 26,
        "id": "36e25cb0bf37c14e396e0d37e44b34ae",
        "latitude": 51.2048,
        "longitude": 4.3961,
        "name": "094- Paleisstraat",
        "timestamp": "2024-08-04T18:54:27.100000Z"
      },
      {
        "empty_slots": 18,
        "extra": {
          "address": "Lange Stuivenbergstraat ",
          "status": "OPN",
          "uid": 101
        },
        "free_bikes": 18,
        "id": "3595794104e6fdac2c20c0ff5279d7a9",
        "latitude": 51.2241,
        "longitude": 4.432,
        "name": "101- Premetro Handel",
        "timestamp": "2024-08-04T18:54:27.141000Z"
      },
 
  
      {
        "empty_slots": 20,
        "extra": {
          "address": "Lange Dijkstraat 46/ Van Aerdtstraat",
          "status": "OPN",
          "uid": 126
        },
        "free_bikes": 15,
        "id": "31894b4b5ad4b804ebff0d7be19302d9",
        "latitude": 51.22805,
        "longitude": 4.41902,
        "name": "126- Lange Dijk",
        "timestamp": "2024-08-04T18:54:27.376000Z"
      }
    ]
  }
}